[
  {
    "station_id": "2280",
    "name": "Klingenberggata",
    "address": "Olav Vs Gate 5",
    "lat": 59.913150534075015,
    "lon": 10.732281291700133,
    "capacity": 15
  },
  {
    "station_id": "2270",
    "name": "L\u00f8renporten",
    "address": "L\u00f8renveien 63",
    "lat": 59.92883258499495,
    "lon": 10.799770383800876,
    "capacity": 20
  },
  {
    "station_id": "1919",
    "name": "Kv\u00e6rnerveien",
    "address": "Kv\u00e6rnerveien 5",
    "lat": 59.90591083488326,
    "lon": 10.778592132296495,
    "capacity": 6
  },
  {
    "station_id": "1755",
    "name": "Aker Brygge",
    "address": "Aker Brygge",
    "lat": 59.91118372188379,
    "lon": 10.730034556850455,
    "capacity": 33
  },
  {
    "station_id": "1101",
    "name": "Stortingstunellen",
    "address": "R\u00e5dhusgata 34",
    "lat": 59.91065301806209,
    "lon": 10.737365277561025,
    "capacity": 24
  },
  {
    "station_id": "1023",
    "name": "Professor Aschehougs plass",
    "address": "Professor Aschehougs plass",
    "lat": 59.9147672,
    "lon": 10.740971,
    "capacity": 12
  },
  {
    "station_id": "1009",
    "name": "Borgenveien",
    "address": "Slemsdalsveien 70B",
    "lat": 59.942742106473666,
    "lon": 10.703833031254021,
    "capacity": 10
  },
  {
    "station_id": "970",
    "name": "Enerhaugen",
    "address": "S\u00f8rligata 2",
    "lat": 59.91320242563816,
    "lon": 10.767579386407874,
    "capacity": 25
  },
  {
    "station_id": "787",
    "name": "Kirkegata 15",
    "address": "Kirkegata 15",
    "lat": 59.91015615055511,
    "lon": 10.743456971511705,
    "capacity": 12
  },
  {
    "station_id": "627",
    "name": "Sk\u00f8yen Stasjon",
    "address": "Sk\u00f8yen Stasjon",
    "lat": 59.922723981014094,
    "lon": 10.67862514536896,
    "capacity": 30
  },
  {
    "station_id": "623",
    "name": "7 Juni Plassen",
    "address": "7 Juni Plassen",
    "lat": 59.9150596,
    "lon": 10.7312715,
    "capacity": 21
  },
  {
    "station_id": "624",
    "name": "D\u00e6lenenggata",
    "address": "D\u00e6lenenggata 38",
    "lat": 59.9287502718149,
    "lon": 10.767546377298158,
    "capacity": 20
  },
  {
    "station_id": "626",
    "name": "Drammensveien",
    "address": "Drammensveien 119",
    "lat": 59.9204038,
    "lon": 10.691147,
    "capacity": 24
  },
  {
    "station_id": "614",
    "name": "Sinsen T-bane",
    "address": "Hans Nielsen Hauges gate 50",
    "lat": 59.938863086921295,
    "lon": 10.780603250331886,
    "capacity": 24
  },
  {
    "station_id": "616",
    "name": "Salt",
    "address": "Salt ved Langkaia",
    "lat": 59.906922167198275,
    "lon": 10.746530272588245,
    "capacity": 15
  },
  {
    "station_id": "618",
    "name": "Bak Niels Treschows hus s\u00f8r",
    "address": "Problemveien P. A. Munchs Hus",
    "lat": 59.94247260310697,
    "lon": 10.723715245368956,
    "capacity": 42
  },
  {
    "station_id": "621",
    "name": "Torshovdalen \u00f8st",
    "address": "Torshovdalen \u00f8st",
    "lat": 59.93285662158759,
    "lon": 10.777633472422016,
    "capacity": 27
  },
  {
    "station_id": "622",
    "name": "Pilestredet 63",
    "address": "Pilestredet 63",
    "lat": 59.9238826,
    "lon": 10.7313627,
    "capacity": 30
  },
  {
    "station_id": "613",
    "name": "Schives gate",
    "address": "Schives gate",
    "lat": 59.92095635370271,
    "lon": 10.714055629614734,
    "capacity": 27
  },
  {
    "station_id": "620",
    "name": "Bislettgata",
    "address": "Bislettgata",
    "lat": 59.92377440938114,
    "lon": 10.734712874574,
    "capacity": 40
  },
  {
    "station_id": "596",
    "name": "Idioten",
    "address": "Ullev\u00e5lsveien 79",
    "lat": 59.931020132184614,
    "lon": 10.736036647971048,
    "capacity": 18
  },
  {
    "station_id": "617",
    "name": "Bjerregaardsgate \u00d8st",
    "address": "Bjerregaardsgate 68",
    "lat": 59.92716771401357,
    "lon": 10.749754560118863,
    "capacity": 21
  },
  {
    "station_id": "609",
    "name": "Fred Olsens gate",
    "address": "Fred Olsens gate",
    "lat": 59.9110506,
    "lon": 10.7493737,
    "capacity": 27
  },
  {
    "station_id": "607",
    "name": "Marcus Thranes gate",
    "address": "Marcus Thranes gate 6",
    "lat": 59.93277225626508,
    "lon": 10.758594919923468,
    "capacity": 30
  },
  {
    "station_id": "603",
    "name": "Frogner plass",
    "address": "Frognerveien 58",
    "lat": 59.9225392,
    "lon": 10.7045406,
    "capacity": 18
  },
  {
    "station_id": "590",
    "name": "Majorstua skole",
    "address": "Majorstua skole",
    "lat": 59.9294351,
    "lon": 10.7136816,
    "capacity": 40
  },
  {
    "station_id": "610",
    "name": "Sotahj\u00f8rnet",
    "address": "Sotahj\u00f8rnet",
    "lat": 59.9099822,
    "lon": 10.7914482,
    "capacity": 20
  },
  {
    "station_id": "608",
    "name": "Colletts gate",
    "address": "Colletts/Diriks gate",
    "lat": 59.93068679863987,
    "lon": 10.746273349149249,
    "capacity": 21
  },
  {
    "station_id": "593",
    "name": "Bj\u00f8lsen m\u00f8lle",
    "address": "Sandakerveien 51",
    "lat": 59.9392403070359,
    "lon": 10.768771317790996,
    "capacity": 30
  },
  {
    "station_id": "530",
    "name": "Holbergs Plass",
    "address": "Holbergs Plass",
    "lat": 59.9193095,
    "lon": 10.7343051,
    "capacity": 10
  },
  {
    "station_id": "463",
    "name": "Schous plass trikkestopp",
    "address": "Schous plass trikkestopp",
    "lat": 59.9207284,
    "lon": 10.7594857,
    "capacity": 20
  },
  {
    "station_id": "475",
    "name": "Hausmanns bru",
    "address": "Hausmanns bru",
    "lat": 59.9146509,
    "lon": 10.7598719,
    "capacity": 24
  },
  {
    "station_id": "494",
    "name": "R\u00e5dhusbrygge 4",
    "address": "R\u00e5dhusbrygge 4",
    "lat": 59.9108469,
    "lon": 10.7303766,
    "capacity": 40
  },
  {
    "station_id": "439",
    "name": "M\u00f8lleparken",
    "address": "M\u00f8lleparken",
    "lat": 59.9283928,
    "lon": 10.7559693,
    "capacity": 25
  },
  {
    "station_id": "440",
    "name": "Lakkegata",
    "address": "Lakkegata",
    "lat": 59.9172088,
    "lon": 10.7622135,
    "capacity": 18
  },
  {
    "station_id": "612",
    "name": "Ensj\u00f8veien",
    "address": "Ensj\u00f8veien 6A",
    "lat": 59.91662195885618,
    "lon": 10.783309055819714,
    "capacity": 19
  },
  {
    "station_id": "491",
    "name": "Brugata",
    "address": "Brugata 17",
    "lat": 59.91366109486603,
    "lon": 10.75729364846211,
    "capacity": 18
  },
  {
    "station_id": "493",
    "name": "Sofienbergparken nordvest",
    "address": "Helgesens Gate 26A",
    "lat": 59.9243639,
    "lon": 10.7615858,
    "capacity": 30
  },
  {
    "station_id": "410",
    "name": "Landstads gate",
    "address": "Circle K Kiellands",
    "lat": 59.929005,
    "lon": 10.7496755,
    "capacity": 27
  },
  {
    "station_id": "605",
    "name": "\u00d8kernveien",
    "address": "Ensj\u00f8veien 38A",
    "lat": 59.9167376,
    "lon": 10.779916,
    "capacity": 24
  },
  {
    "station_id": "388",
    "name": "Skovveien",
    "address": "Skovveien ved Frognerveien",
    "lat": 59.9163309,
    "lon": 10.716349,
    "capacity": 18
  },
  {
    "station_id": "591",
    "name": "Grenseveien",
    "address": "Grenseveien 19",
    "lat": 59.92464487862039,
    "lon": 10.781726510450724,
    "capacity": 24
  },
  {
    "station_id": "592",
    "name": "Badebakken",
    "address": "Maridalsveien 244C",
    "lat": 59.94558091179507,
    "lon": 10.760323881579982,
    "capacity": 18
  },
  {
    "station_id": "585",
    "name": "Nordre gate",
    "address": "Nedre gate 2",
    "lat": 59.92114988507087,
    "lon": 10.754714015938562,
    "capacity": 18
  },
  {
    "station_id": "565",
    "name": "Mailundveien",
    "address": "Mailundveien - Rosenhoffgata",
    "lat": 59.9309181,
    "lon": 10.7728203,
    "capacity": 18
  },
  {
    "station_id": "571",
    "name": "Over R\u00e5dhusgata",
    "address": "Nedre Slottsgate 4",
    "lat": 59.9101207,
    "lon": 10.7407129,
    "capacity": 21
  },
  {
    "station_id": "568",
    "name": "Frognerveien",
    "address": "Frognerveien 15",
    "lat": 59.9170851,
    "lon": 10.7128796,
    "capacity": 15
  },
  {
    "station_id": "588",
    "name": "Meltzers gate",
    "address": "Meltzers gate ved Skovveien",
    "lat": 59.9180141,
    "lon": 10.7184345,
    "capacity": 21
  },
  {
    "station_id": "569",
    "name": "Botanisk hage s\u00f8r-vest",
    "address": "Sars gate",
    "lat": 59.91783548782385,
    "lon": 10.766373769557958,
    "capacity": 30
  },
  {
    "station_id": "577",
    "name": "Arkaden Nord",
    "address": "Dronningens gate ved Arkaden II",
    "lat": 59.9121472,
    "lon": 10.7480527,
    "capacity": 30
  },
  {
    "station_id": "606",
    "name": "Stockfleths gate",
    "address": "Stockfleths gate/ griffenfeldts",
    "lat": 59.9339754,
    "lon": 10.7521029,
    "capacity": 18
  },
  {
    "station_id": "564",
    "name": "Oscars gate",
    "address": "Oscars gate - Hegdehaugsveien",
    "lat": 59.9224222,
    "lon": 10.7272388,
    "capacity": 30
  },
  {
    "station_id": "570",
    "name": "Fr\u00f8en T-bane",
    "address": "Slemdalsveien 28",
    "lat": 59.9347352,
    "lon": 10.7096985,
    "capacity": 15
  },
  {
    "station_id": "572",
    "name": "Sk\u00f8yen",
    "address": "Sk\u00f8yen (under bro)",
    "lat": 59.92226850808104,
    "lon": 10.679579749668129,
    "capacity": 40
  },
  {
    "station_id": "587",
    "name": "Riddervoldplass",
    "address": "Riddervoldplass , Camilla Colletts vei",
    "lat": 59.9191421,
    "lon": 10.7196414,
    "capacity": 15
  },
  {
    "station_id": "586",
    "name": "K\u00f8benhavngata busstopp",
    "address": "K\u00f8benhavngata busstopp",
    "lat": 59.9294565845173,
    "lon": 10.769121495700826,
    "capacity": 27
  },
  {
    "station_id": "576",
    "name": "Dronningens gate",
    "address": "Dronningens gate 25",
    "lat": 59.911392299457006,
    "lon": 10.747281829592453,
    "capacity": 18
  },
  {
    "station_id": "566",
    "name": "Hoff terrasse holdeplass",
    "address": "Hoffsveien 22",
    "lat": 59.9272941,
    "lon": 10.6755714,
    "capacity": 24
  },
  {
    "station_id": "602",
    "name": "Jarlsborgveien",
    "address": "Jarlsborgveien- Hoffsveien",
    "lat": 59.9304645,
    "lon": 10.6757833,
    "capacity": 18
  },
  {
    "station_id": "575",
    "name": "Sognsveien",
    "address": "Sognsveien ved Ullev\u00e5l T-bane",
    "lat": 59.94743324225673,
    "lon": 10.732569703704815,
    "capacity": 30
  },
  {
    "station_id": "567",
    "name": "Forskningsveien",
    "address": "Forskningsveien 1",
    "lat": 59.945450633702556,
    "lon": 10.713867957672134,
    "capacity": 39
  },
  {
    "station_id": "582",
    "name": "Stavangergata",
    "address": "Stavangergata 1",
    "lat": 59.94114763297182,
    "lon": 10.750775120272449,
    "capacity": 30
  },
  {
    "station_id": "595",
    "name": "Skarpsnoparken",
    "address": "Skarpsnoparken",
    "lat": 59.914871,
    "lon": 10.701037,
    "capacity": 24
  },
  {
    "station_id": "557",
    "name": "Akersgata",
    "address": "Akersgata - Grensen",
    "lat": 59.9141971,
    "lon": 10.7428828,
    "capacity": 21
  },
  {
    "station_id": "542",
    "name": "Gr\u00fcnerhagen Nord",
    "address": "Sofienberggata 2B",
    "lat": 59.9224256,
    "lon": 10.7554274,
    "capacity": 20
  },
  {
    "station_id": "563",
    "name": "Huitfeldts gate",
    "address": "Huitfeldts gate 24",
    "lat": 59.9126844,
    "lon": 10.7229003,
    "capacity": 18
  },
  {
    "station_id": "558",
    "name": "Dokkveien",
    "address": "Dokkveien",
    "lat": 59.910974,
    "lon": 10.7277001,
    "capacity": 15
  },
  {
    "station_id": "552",
    "name": "Trelastgata",
    "address": "Trelastgata 21",
    "lat": 59.908004655328924,
    "lon": 10.7625700380287,
    "capacity": 18
  },
  {
    "station_id": "555",
    "name": "Griffenfeldts gate",
    "address": "Colletts gate 64",
    "lat": 59.9337026,
    "lon": 10.7519299,
    "capacity": 15
  },
  {
    "station_id": "573",
    "name": "Tordenskiolds gate",
    "address": "Tordenskiolds gate 12",
    "lat": 59.911776299209265,
    "lon": 10.735113005880237,
    "capacity": 24
  },
  {
    "station_id": "561",
    "name": "Kirkeveien",
    "address": "Kirkeveien 106A",
    "lat": 59.93347989334691,
    "lon": 10.726294394131088,
    "capacity": 24
  },
  {
    "station_id": "615",
    "name": "Munkedamsveien",
    "address": "Konserthuset/Munkedamsveien",
    "lat": 59.9135227,
    "lon": 10.7301061,
    "capacity": 21
  },
  {
    "station_id": "543",
    "name": "Fyrstikktorget",
    "address": "Grensesvingen 7",
    "lat": 59.91381587564694,
    "lon": 10.798093360118871,
    "capacity": 20
  },
  {
    "station_id": "554",
    "name": "T\u00e5sen Senter",
    "address": "T\u00e5sen senter ved rundkj\u00f8ring",
    "lat": 59.952659,
    "lon": 10.751165,
    "capacity": 21
  },
  {
    "station_id": "574",
    "name": "Annette Thommessens Plass",
    "address": "Annette Thommesens Plass",
    "lat": 59.9107393,
    "lon": 10.7609998,
    "capacity": 12
  },
  {
    "station_id": "560",
    "name": "Gaustad T-bane",
    "address": "Gaustad T-bane",
    "lat": 59.945955,
    "lon": 10.710392,
    "capacity": 9
  },
  {
    "station_id": "548",
    "name": "Colbj\u00f8rnsens gate",
    "address": "Colbj\u00f8rnsens gate",
    "lat": 59.91731888534716,
    "lon": 10.716909039918278,
    "capacity": 18
  },
  {
    "station_id": "559",
    "name": "Hoffsveien",
    "address": "Hoffsveien 1E",
    "lat": 59.923898,
    "lon": 10.6760339,
    "capacity": 18
  },
  {
    "station_id": "545",
    "name": "Arkaden S\u00f8r",
    "address": "Dronningens gate ved Arkaden",
    "lat": 59.9119691,
    "lon": 10.7478583,
    "capacity": 39
  },
  {
    "station_id": "550",
    "name": "Thereses gate",
    "address": "Therese's gate 49",
    "lat": 59.9261462,
    "lon": 10.7310355,
    "capacity": 9
  },
  {
    "station_id": "541",
    "name": "Langkaia",
    "address": "r\u00e5dhusgata / langkaia",
    "lat": 59.9080552,
    "lon": 10.7479977,
    "capacity": 12
  },
  {
    "station_id": "527",
    "name": "Biskop Gunnerus' gate",
    "address": "Oslo City - Biskop Gunnerus gate",
    "lat": 59.9123341,
    "lon": 10.752292,
    "capacity": 12
  },
  {
    "station_id": "529",
    "name": "Friggfeltet",
    "address": "Slemdalsveien ved Frigg",
    "lat": 59.9327726,
    "lon": 10.7114661,
    "capacity": 21
  },
  {
    "station_id": "553",
    "name": "Skr\u00e5ninga",
    "address": "Torggata 8",
    "lat": 59.9139786,
    "lon": 10.7474667,
    "capacity": 25
  },
  {
    "station_id": "549",
    "name": "Linaaes gate",
    "address": "M\u00f8llergata 3",
    "lat": 59.91382393242077,
    "lon": 10.745704482209018,
    "capacity": 21
  },
  {
    "station_id": "526",
    "name": "Lille Grensen",
    "address": "Lille Grensen - Akersgata 43",
    "lat": 59.9138973,
    "lon": 10.7423101,
    "capacity": 15
  },
  {
    "station_id": "537",
    "name": "St. Olavs gate",
    "address": "St.Olavs gate 21 - Pilestredet",
    "lat": 59.9179676629428,
    "lon": 10.738628884264756,
    "capacity": 20
  },
  {
    "station_id": "547",
    "name": "Skippergata",
    "address": "Skippergata - Karl Johans gate",
    "lat": 59.9112227,
    "lon": 10.7481976,
    "capacity": 30
  },
  {
    "station_id": "601",
    "name": "Rolf Wickstr\u00f8ms vei",
    "address": "Rolf Wickstr\u00f8ms vei, Bergr\u00e5dveien 13",
    "lat": 59.9534114,
    "lon": 10.7577241,
    "capacity": 20
  },
  {
    "station_id": "533",
    "name": "S\u00f8rvest for Slottsparken",
    "address": "Henrik Ibsens gate 40",
    "lat": 59.915262,
    "lon": 10.7253157,
    "capacity": 12
  },
  {
    "station_id": "535",
    "name": "Uranienborgveien",
    "address": "Uranienborgveien 3",
    "lat": 59.9200421,
    "lon": 10.726634,
    "capacity": 27
  },
  {
    "station_id": "524",
    "name": "Volvat",
    "address": "S\u00f8rkedalsveien 33",
    "lat": 59.9330870371029,
    "lon": 10.703967938028702,
    "capacity": 21
  },
  {
    "station_id": "519",
    "name": "Thomas Heftyes plass",
    "address": "Bygd\u00f8y alle/Elisenbergveien",
    "lat": 59.918578143336774,
    "lon": 10.703899530059402,
    "capacity": 24
  },
  {
    "station_id": "534",
    "name": "Filipstadveien",
    "address": "Filipstadveien El-bilparkering/busslomme",
    "lat": 59.9102277,
    "lon": 10.7208788,
    "capacity": 39
  },
  {
    "station_id": "521",
    "name": "Jess Carlsens gate",
    "address": "Jess Carlsens gate",
    "lat": 59.9186359,
    "lon": 10.7523939,
    "capacity": 15
  },
  {
    "station_id": "518",
    "name": "Ullev\u00e5lsveien",
    "address": "Ullev\u00e5lsveien 47 - Schwenssens gate",
    "lat": 59.9246852,
    "lon": 10.7395045,
    "capacity": 18
  },
  {
    "station_id": "556",
    "name": "Pilestredet",
    "address": "Pilestredet 75",
    "lat": 59.9262242,
    "lon": 10.7296246,
    "capacity": 18
  },
  {
    "station_id": "525",
    "name": "Myral\u00f8kka \u00d8st",
    "address": "Arendalsgata 45",
    "lat": 59.937205,
    "lon": 10.7605813,
    "capacity": 15
  },
  {
    "station_id": "517",
    "name": "T\u00e5senl\u00f8kka",
    "address": "Uelands gate - Voldsl\u00f8kka",
    "lat": 59.9433939,
    "lon": 10.7482848,
    "capacity": 18
  },
  {
    "station_id": "523",
    "name": "T\u00f8yenbekken",
    "address": "T\u00f8yenbekken",
    "lat": 59.9115945,
    "lon": 10.7617736,
    "capacity": 30
  },
  {
    "station_id": "522",
    "name": "Mandalls gate",
    "address": "Mandalls gate",
    "lat": 59.9123469,
    "lon": 10.7638147,
    "capacity": 10
  },
  {
    "station_id": "594",
    "name": "Kampen park \u00d8st",
    "address": "Kampen park \u00f8st",
    "lat": 59.915182,
    "lon": 10.782129,
    "capacity": 21
  },
  {
    "station_id": "532",
    "name": "Brynseng T-bane",
    "address": "\u00d8stensj\u00f8veien 47",
    "lat": 59.90918420865812,
    "lon": 10.81431433498766,
    "capacity": 21
  },
  {
    "station_id": "509",
    "name": "Kjeld Stubs gate",
    "address": "Kjeld Stubs gate 3",
    "lat": 59.912711,
    "lon": 10.735595,
    "capacity": 12
  },
  {
    "station_id": "531",
    "name": "Monolittveien",
    "address": "Smestaddammen (Monolittveien/Hoffsveien)",
    "lat": 59.935947,
    "lon": 10.681138,
    "capacity": 18
  },
  {
    "station_id": "536",
    "name": "Diakonhjemmet",
    "address": "Diakonveien 14",
    "lat": 59.9363277,
    "lon": 10.7054333,
    "capacity": 15
  },
  {
    "station_id": "562",
    "name": "Slottsparken \u00d8st",
    "address": "Wergelandsveien / St Olavs gate",
    "lat": 59.917485,
    "lon": 10.732128,
    "capacity": 40
  },
  {
    "station_id": "508",
    "name": "Majorstuen T-bane",
    "address": "Majorstuen t-bane",
    "lat": 59.92985724219502,
    "lon": 10.714566236770679,
    "capacity": 18
  },
  {
    "station_id": "511",
    "name": "Henrik Ibsens gate",
    "address": "Parkveien / Henrik Ibsens gate",
    "lat": 59.915088,
    "lon": 10.7222803,
    "capacity": 24
  },
  {
    "station_id": "505",
    "name": "Marienlystparken",
    "address": "Marienlyst / Kirkeveien",
    "lat": 59.93215,
    "lon": 10.723478,
    "capacity": 24
  },
  {
    "station_id": "501",
    "name": "Krebs' gate",
    "address": "Vogstgate 60",
    "lat": 59.935995,
    "lon": 10.765413,
    "capacity": 18
  },
  {
    "station_id": "514",
    "name": "Sofienberggata",
    "address": "Trondheimsveien 37",
    "lat": 59.9212063,
    "lon": 10.7699892,
    "capacity": 12
  },
  {
    "station_id": "500",
    "name": "Anker Hotel",
    "address": "Storgata 57 Anker Hotell",
    "lat": 59.9172794,
    "lon": 10.7581553,
    "capacity": 12
  },
  {
    "station_id": "503",
    "name": "Fagerheimgata",
    "address": "Fagerheimgata 8",
    "lat": 59.927605868377185,
    "lon": 10.76598469881135,
    "capacity": 33
  },
  {
    "station_id": "513",
    "name": "B\u00f8kkerveien",
    "address": "B\u00f8kkerveien 11 ved Cafe Nord",
    "lat": 59.9273747,
    "lon": 10.7960147,
    "capacity": 15
  },
  {
    "station_id": "498",
    "name": "HasleLinje",
    "address": "Kavresvingen 3",
    "lat": 59.92763407981436,
    "lon": 10.799249379762283,
    "capacity": 18
  },
  {
    "station_id": "507",
    "name": "Jens Bjelkes gate",
    "address": "Jens Bjelkes gate / Trondheimsveien",
    "lat": 59.919179,
    "lon": 10.764162,
    "capacity": 15
  },
  {
    "station_id": "512",
    "name": "Ensj\u00f8 T-bane",
    "address": "Ensj\u00f8veien 22",
    "lat": 59.9131891,
    "lon": 10.7897605,
    "capacity": 30
  },
  {
    "station_id": "502",
    "name": "Ullev\u00e5l sykehus",
    "address": "Kirkeveien 166 / Ullev\u00e5l sykehus",
    "lat": 59.9360307,
    "lon": 10.7364516,
    "capacity": 35
  },
  {
    "station_id": "619",
    "name": "Bak Niels Treschows hus nord",
    "address": "Problemveien P. A. Munchs Hus",
    "lat": 59.942780248542554,
    "lon": 10.722993731144015,
    "capacity": 42
  },
  {
    "station_id": "474",
    "name": "Blindern studentparkering",
    "address": "Blindern studentparkering",
    "lat": 59.940873733543725,
    "lon": 10.720778851520523,
    "capacity": 42
  },
  {
    "station_id": "477",
    "name": "M\u00f8llergata",
    "address": "M\u00f8llergata 19",
    "lat": 59.91537003977052,
    "lon": 10.748493387102522,
    "capacity": 27
  },
  {
    "station_id": "580",
    "name": "Georg Morgenstiernes hus",
    "address": "Moltke Moes vei 37",
    "lat": 59.939025551395765,
    "lon": 10.723002619643406,
    "capacity": 45
  },
  {
    "station_id": "496",
    "name": "Fysikkbygningen",
    "address": "Blindern Fysikkbygg parkering",
    "lat": 59.937957367051965,
    "lon": 10.719488529430388,
    "capacity": 45
  },
  {
    "station_id": "482",
    "name": "Nydalen",
    "address": "Gjerdrumsvei 6",
    "lat": 59.952868,
    "lon": 10.766483,
    "capacity": 18
  },
  {
    "station_id": "407",
    "name": "Sagene bussholdeplass",
    "address": "Sagene bussholdeplass",
    "lat": 59.937743,
    "lon": 10.751648,
    "capacity": 15
  },
  {
    "station_id": "409",
    "name": "John Colletts plass",
    "address": "Sognsveien 16",
    "lat": 59.940398,
    "lon": 10.730036,
    "capacity": 25
  },
  {
    "station_id": "451",
    "name": "Suhms gate",
    "address": "Suhms gate 1A",
    "lat": 59.929419,
    "lon": 10.726195,
    "capacity": 21
  },
  {
    "station_id": "385",
    "name": "S\u00f8ndre gate",
    "address": "S\u00f8ndre gate 6",
    "lat": 59.918632,
    "lon": 10.757867,
    "capacity": 21
  },
  {
    "station_id": "402",
    "name": "L\u00f8renveien",
    "address": "L\u00f8renveien 41e",
    "lat": 59.93087712510462,
    "lon": 10.791823716034969,
    "capacity": 21
  },
  {
    "station_id": "516",
    "name": "Finnmarksgata",
    "address": "Finnmarksgata 40",
    "lat": 59.922839,
    "lon": 10.775658,
    "capacity": 15
  },
  {
    "station_id": "625",
    "name": "Spikersuppa \u00d8st",
    "address": "spikersuppa",
    "lat": 59.91336,
    "lon": 10.737663,
    "capacity": 42
  },
  {
    "station_id": "429",
    "name": "Thune",
    "address": "Thune ved bomring",
    "lat": 59.92208,
    "lon": 10.68588,
    "capacity": 21
  },
  {
    "station_id": "380",
    "name": "Bentsebrugata",
    "address": "Bentsebrugata 29b",
    "lat": 59.93923,
    "lon": 10.75917,
    "capacity": 24
  },
  {
    "station_id": "583",
    "name": "Galgeberg",
    "address": "St Halvards gate 57A",
    "lat": 59.90707579234818,
    "lon": 10.779164402446728,
    "capacity": 18
  },
  {
    "station_id": "398",
    "name": "Ringnes Park",
    "address": "Sannergata 6A",
    "lat": 59.92843404417577,
    "lon": 10.75943014633117,
    "capacity": 18
  },
  {
    "station_id": "381",
    "name": "Gr\u00f8nlands torg",
    "address": "Gr\u00f8nlands torg",
    "lat": 59.91252,
    "lon": 10.76224,
    "capacity": 15
  },
  {
    "station_id": "442",
    "name": "Vulkan",
    "address": "Vulkan 26",
    "lat": 59.92251,
    "lon": 10.75101,
    "capacity": 18
  },
  {
    "station_id": "483",
    "name": "Hausmanns gate",
    "address": "Hausmanns gate / R\u00f8de Kors",
    "lat": 59.915451,
    "lon": 10.758328,
    "capacity": 21
  },
  {
    "station_id": "458",
    "name": "Jenny Braatens Plass",
    "address": "Trondheimsveien 135",
    "lat": 59.928349,
    "lon": 10.77837,
    "capacity": 15
  },
  {
    "station_id": "499",
    "name": "Bjerregaards gate",
    "address": "Bjerregaards gate 52-32",
    "lat": 59.925488,
    "lon": 10.746058,
    "capacity": 21
  },
  {
    "station_id": "472",
    "name": "Arendalsgata",
    "address": "Arendalsgata / Sagene Kirke",
    "lat": 59.9378,
    "lon": 10.7541,
    "capacity": 24
  },
  {
    "station_id": "506",
    "name": "Botanisk Hage vest",
    "address": "Botanisk Hage vest",
    "lat": 59.92012811804052,
    "lon": 10.768875408563598,
    "capacity": 27
  },
  {
    "station_id": "465",
    "name": "Bj\u00f8rvika",
    "address": "Dronning Eufemias gate 8",
    "lat": 59.909006,
    "lon": 10.75618,
    "capacity": 30
  },
  {
    "station_id": "611",
    "name": "Bankplassen",
    "address": "Bankplassen",
    "lat": 59.908454,
    "lon": 10.741869,
    "capacity": 39
  },
  {
    "station_id": "404",
    "name": "Oslo Handelsgymnasium",
    "address": "Solligata",
    "lat": 59.914306,
    "lon": 10.720202,
    "capacity": 27
  },
  {
    "station_id": "579",
    "name": "Bogstadveien",
    "address": "Bogstadveien",
    "lat": 59.924732,
    "lon": 10.724628,
    "capacity": 18
  },
  {
    "station_id": "589",
    "name": "Huk",
    "address": "Huk",
    "lat": 59.898126,
    "lon": 10.675096,
    "capacity": 48
  },
  {
    "station_id": "434",
    "name": "Lindern",
    "address": "Kirkeveien 165",
    "lat": 59.9358883,
    "lon": 10.7350062,
    "capacity": 21
  },
  {
    "station_id": "462",
    "name": "Stensparken",
    "address": "Sporveisgata",
    "lat": 59.92714,
    "lon": 10.730981,
    "capacity": 15
  },
  {
    "station_id": "578",
    "name": "Hallings gate",
    "address": "Hallings gate 2",
    "lat": 59.922777,
    "lon": 10.738655,
    "capacity": 24
  },
  {
    "station_id": "415",
    "name": "Sinsenveien",
    "address": "Sinsenveien ",
    "lat": 59.929542,
    "lon": 10.781053,
    "capacity": 12
  },
  {
    "station_id": "423",
    "name": "Schous plass",
    "address": "Schous plass",
    "lat": 59.920335,
    "lon": 10.760804,
    "capacity": 20
  },
  {
    "station_id": "412",
    "name": "Jakob kirke",
    "address": "Jakob Kirke",
    "lat": 59.917866,
    "lon": 10.754898,
    "capacity": 9
  },
  {
    "station_id": "387",
    "name": "Studenterlunden",
    "address": "Karl Johans gate 47",
    "lat": 59.914586,
    "lon": 10.735453,
    "capacity": 15
  },
  {
    "station_id": "405",
    "name": "Frognerbadet",
    "address": "Middelthuns gate 28",
    "lat": 59.92808,
    "lon": 10.708767,
    "capacity": 18
  },
  {
    "station_id": "441",
    "name": "Vippetangen \u00f8st",
    "address": "Vippetangen_Akershusstranden",
    "lat": 59.903989,
    "lon": 10.741077,
    "capacity": 15
  },
  {
    "station_id": "443",
    "name": "Sj\u00f8siden ved trappen",
    "address": "Christian Frederiks Plass",
    "lat": 59.910154466964954,
    "lon": 10.751980909227372,
    "capacity": 45
  },
  {
    "station_id": "454",
    "name": "Furulund",
    "address": "V\u00e6ker\u00f8veien 22",
    "lat": 59.9198098,
    "lon": 10.651118,
    "capacity": 24
  },
  {
    "station_id": "436",
    "name": "Vestkanttorvet",
    "address": "Vestkanttorvet",
    "lat": 59.9244031,
    "lon": 10.7130691,
    "capacity": 15
  },
  {
    "station_id": "394",
    "name": "Bj\u00f8lsen Studentby",
    "address": "Bergensgata 15D",
    "lat": 59.943777539367225,
    "lon": 10.760121127577955,
    "capacity": 21
  },
  {
    "station_id": "497",
    "name": "Sirkustomta",
    "address": "Sirkustomta",
    "lat": 59.919252,
    "lon": 10.774712,
    "capacity": 27
  },
  {
    "station_id": "581",
    "name": "Jordalgata",
    "address": "Galgeberg 3G",
    "lat": 59.908227,
    "lon": 10.781088,
    "capacity": 24
  },
  {
    "station_id": "461",
    "name": "V\u00e5lerenga",
    "address": "Str\u00f8msveien 23D",
    "lat": 59.908576,
    "lon": 10.786856,
    "capacity": 21
  },
  {
    "station_id": "599",
    "name": "Pal\u00e9haven",
    "address": "Palehaven",
    "lat": 59.910331,
    "lon": 10.75011,
    "capacity": 48
  },
  {
    "station_id": "428",
    "name": "Olav Kyrres plass",
    "address": "Olav Kyrres plass",
    "lat": 59.9193337,
    "lon": 10.6968953,
    "capacity": 24
  },
  {
    "station_id": "400",
    "name": "OsloMet",
    "address": "Pilestredet 35",
    "lat": 59.919927,
    "lon": 10.735428,
    "capacity": 25
  },
  {
    "station_id": "487",
    "name": "Carl Berners plass nord",
    "address": "Carl Berner Senter",
    "lat": 59.926929,
    "lon": 10.776971,
    "capacity": 21
  },
  {
    "station_id": "438",
    "name": "BI Nydalen",
    "address": "Nydalsveien 37",
    "lat": 59.949239,
    "lon": 10.768576,
    "capacity": 42
  },
  {
    "station_id": "459",
    "name": "Valkyrieplassen",
    "address": "Valkyriegata 1",
    "lat": 59.9281319,
    "lon": 10.71842,
    "capacity": 12
  },
  {
    "station_id": "433",
    "name": "Ila",
    "address": "Ovenfor Claus Riis' gate",
    "lat": 59.931828,
    "lon": 10.748745,
    "capacity": 18
  },
  {
    "station_id": "399",
    "name": "Uelands gate",
    "address": "Uelands gate 40",
    "lat": 59.929545,
    "lon": 10.7489862,
    "capacity": 36
  },
  {
    "station_id": "489",
    "name": "Torggata",
    "address": "Torggata 18",
    "lat": 59.91598309274519,
    "lon": 10.75155119076095,
    "capacity": 30
  },
  {
    "station_id": "742",
    "name": "Hasle",
    "address": "Hasle",
    "lat": 59.924342,
    "lon": 10.79285,
    "capacity": 30
  },
  {
    "station_id": "551",
    "name": "Olaf Ryes plass",
    "address": "Olaf Ryes plass 2",
    "lat": 59.922425,
    "lon": 10.758182,
    "capacity": 35
  },
  {
    "station_id": "406",
    "name": "Carl Berners plass s\u00f8r",
    "address": "Frydens Gate 1A",
    "lat": 59.92507,
    "lon": 10.775996,
    "capacity": 12
  },
  {
    "station_id": "488",
    "name": "Torshovparken vest",
    "address": "Per Kvibergs gate 18",
    "lat": 59.93507,
    "lon": 10.76915,
    "capacity": 24
  },
  {
    "station_id": "540",
    "name": "Lilleborgbanen",
    "address": "Ole Bulls gate 43",
    "lat": 59.93363159074286,
    "lon": 10.769118139881124,
    "capacity": 36
  },
  {
    "station_id": "431",
    "name": "Chr. Michelsens Gate",
    "address": "Chr. Michelsens Gate 18",
    "lat": 59.927292,
    "lon": 10.773185,
    "capacity": 20
  },
  {
    "station_id": "393",
    "name": "Hans Nielsen Hauges plass",
    "address": "Hans Nielsen Hauges plass 1",
    "lat": 59.939244,
    "lon": 10.774319,
    "capacity": 21
  },
  {
    "station_id": "420",
    "name": "Bj\u00f8lsendumpa",
    "address": "Treschows gate 8B",
    "lat": 59.94032925181832,
    "lon": 10.766136667493829,
    "capacity": 21
  },
  {
    "station_id": "397",
    "name": "Storo Storsenter",
    "address": "Vitaminveien 21",
    "lat": 59.94671044754387,
    "lon": 10.773805285879131,
    "capacity": 42
  },
  {
    "station_id": "390",
    "name": "Saga Kino",
    "address": "Saga Kino",
    "lat": 59.91424026794647,
    "lon": 10.732771354719745,
    "capacity": 30
  },
  {
    "station_id": "449",
    "name": "Rusel\u00f8kkg\u00e5rden",
    "address": "Rusel\u00f8kkg\u00e5rden",
    "lat": 59.91357497092093,
    "lon": 10.726229742333288,
    "capacity": 24
  },
  {
    "station_id": "430",
    "name": "Spikersuppa Vest",
    "address": "Spikersuppa",
    "lat": 59.91372007130073,
    "lon": 10.735886645853412,
    "capacity": 42
  },
  {
    "station_id": "484",
    "name": "Karenlyst all\u00e9",
    "address": "Karenlyst all\u00e9 9",
    "lat": 59.92033,
    "lon": 10.683814,
    "capacity": 35
  },
  {
    "station_id": "479",
    "name": "Tjuvholmen",
    "address": "Tjuvholmen",
    "lat": 59.909467,
    "lon": 10.722509,
    "capacity": 30
  },
  {
    "station_id": "403",
    "name": "Parkveien",
    "address": "Parkveien",
    "lat": 59.921768,
    "lon": 10.730476,
    "capacity": 15
  },
  {
    "station_id": "435",
    "name": "Fram-g\u00e5rden",
    "address": "Fram-g\u00e5rden",
    "lat": 59.915424,
    "lon": 10.714577,
    "capacity": 30
  },
  {
    "station_id": "426",
    "name": "Gimle Kino",
    "address": "Gimle Kino",
    "lat": 59.91728078292675,
    "lon": 10.708375798767435,
    "capacity": 21
  },
  {
    "station_id": "450",
    "name": "Elisenberg",
    "address": "Elisenberg",
    "lat": 59.919524,
    "lon": 10.70884,
    "capacity": 15
  },
  {
    "station_id": "456",
    "name": "Frognerstranda",
    "address": "Frognerstranda",
    "lat": 59.9103558,
    "lon": 10.7051061,
    "capacity": 35
  },
  {
    "station_id": "468",
    "name": "Skillebekk",
    "address": "Skillebekk",
    "lat": 59.912793405455375,
    "lon": 10.710103028570302,
    "capacity": 15
  },
  {
    "station_id": "453",
    "name": "Frogner Stadion",
    "address": "Frogner Stadion",
    "lat": 59.92753764682686,
    "lon": 10.710262803261259,
    "capacity": 36
  },
  {
    "station_id": "466",
    "name": "Ullev\u00e5lsall\u00e9en",
    "address": "Ullev\u00e5lsall\u00e9en",
    "lat": 59.937913,
    "lon": 10.73048,
    "capacity": 15
  },
  {
    "station_id": "469",
    "name": "Studentparlamentet",
    "address": "Studentparlamentet",
    "lat": 59.920852,
    "lon": 10.733357,
    "capacity": 30
  },
  {
    "station_id": "416",
    "name": "Tannlegeh\u00f8yskolen",
    "address": "Geitmyrsveien 54",
    "lat": 59.932383,
    "lon": 10.741475,
    "capacity": 15
  },
  {
    "station_id": "391",
    "name": "St. Hanshaugen park vest",
    "address": "Colletts gate 31",
    "lat": 59.9268706,
    "lon": 10.7384634,
    "capacity": 20
  },
  {
    "station_id": "389",
    "name": "Pilestredet Studenthus",
    "address": "Pilestredet 38",
    "lat": 59.9205528,
    "lon": 10.7342854,
    "capacity": 18
  },
  {
    "station_id": "470",
    "name": "St. Hanshaugen park nord",
    "address": "Geitmyrsveien 35A",
    "lat": 59.92979845370007,
    "lon": 10.743540765932096,
    "capacity": 15
  },
  {
    "station_id": "384",
    "name": "V\u00e5r Frelsers gravlund s\u00f8r",
    "address": "Ullev\u00e5lsveien 9",
    "lat": 59.919463,
    "lon": 10.743829,
    "capacity": 18
  },
  {
    "station_id": "425",
    "name": "Adamstuen",
    "address": "Adamstuen",
    "lat": 59.932792,
    "lon": 10.734457,
    "capacity": 8
  },
  {
    "station_id": "411",
    "name": "Hasle Torg",
    "address": "Hasle Torg, Grenseveien 54",
    "lat": 59.923240042155456,
    "lon": 10.792831438028703,
    "capacity": 24
  },
  {
    "station_id": "598",
    "name": "Sofienbergparken nord",
    "address": "Helgesens gate 58",
    "lat": 59.923229,
    "lon": 10.766171,
    "capacity": 33
  },
  {
    "station_id": "444",
    "name": "AHO",
    "address": "Arkitektur og Designh\u00f8gskolen i Oslo",
    "lat": 59.925265,
    "lon": 10.750462,
    "capacity": 20
  },
  {
    "station_id": "447",
    "name": "Kv\u00e6rnerbyen",
    "address": "Smeltedigelen 1",
    "lat": 59.904473,
    "lon": 10.786167,
    "capacity": 30
  },
  {
    "station_id": "408",
    "name": "T\u00f8yen skole",
    "address": "Ringgata 2A",
    "lat": 59.914943,
    "lon": 10.773977,
    "capacity": 15
  },
  {
    "station_id": "737",
    "name": "Munkegata trikkestopp",
    "address": "Oslo gate 1B",
    "lat": 59.908255,
    "lon": 10.7678,
    "capacity": 24
  },
  {
    "station_id": "432",
    "name": "St. Hanshaugen park s\u00f8r",
    "address": "Knud Knudsens Plass",
    "lat": 59.924821,
    "lon": 10.739909,
    "capacity": 12
  },
  {
    "station_id": "401",
    "name": "Lille Schous plass",
    "address": "Schous Plass.",
    "lat": 59.920259,
    "lon": 10.760629,
    "capacity": 6
  },
  {
    "station_id": "452",
    "name": "Vippetangen vest",
    "address": "Vippetangen",
    "lat": 59.903989,
    "lon": 10.740627,
    "capacity": 30
  },
  {
    "station_id": "392",
    "name": "Sj\u00f8siden ved fontenen",
    "address": "Christian Fredriks Plass",
    "lat": 59.910180852633516,
    "lon": 10.751698750995615,
    "capacity": 50
  },
  {
    "station_id": "481",
    "name": "R\u00e5dhusgata",
    "address": "R\u00e5dhusgata",
    "lat": 59.910924,
    "lon": 10.736215,
    "capacity": 42
  },
  {
    "station_id": "495",
    "name": "Vaterlandsparken",
    "address": "Vaterlandsparken",
    "lat": 59.91351552854147,
    "lon": 10.757334670552268,
    "capacity": 41
  },
  {
    "station_id": "478",
    "name": "Jernbanetorget",
    "address": "Fred Olsens gate 5",
    "lat": 59.911901,
    "lon": 10.749929,
    "capacity": 15
  },
  {
    "station_id": "448",
    "name": "Oslo Plaza",
    "address": "Oslo Plaza",
    "lat": 59.91218291295141,
    "lon": 10.7544337247013,
    "capacity": 9
  },
  {
    "station_id": "414",
    "name": "Kontraskj\u00e6ret",
    "address": "R\u00e5dhusgata 32",
    "lat": 59.910242,
    "lon": 10.73857,
    "capacity": 12
  },
  {
    "station_id": "476",
    "name": "Edvard Storms gate",
    "address": "Pilestredet Edvard Storms",
    "lat": 59.919111,
    "lon": 10.736179,
    "capacity": 20
  },
  {
    "station_id": "445",
    "name": "Sj\u00f8lyst",
    "address": "Drammensveien 161 B",
    "lat": 59.921673,
    "lon": 10.67666,
    "capacity": 18
  },
  {
    "station_id": "748",
    "name": "Hydroparken",
    "address": "Hydroparken",
    "lat": 59.914145,
    "lon": 10.715505,
    "capacity": 30
  },
  {
    "station_id": "473",
    "name": "Majorstuveien",
    "address": "Majorstuveien",
    "lat": 59.926697,
    "lon": 10.716195,
    "capacity": 9
  },
  {
    "station_id": "383",
    "name": "Arkitekt Rivertz Plass",
    "address": "Arkitekt Rivertz Plass",
    "lat": 59.934936,
    "lon": 10.749466,
    "capacity": 30
  },
  {
    "station_id": "480",
    "name": "Helga Helgesens plass",
    "address": "Helga Helgesens plass",
    "lat": 59.9121109,
    "lon": 10.7661939,
    "capacity": 25
  },
  {
    "station_id": "421",
    "name": "Alexander Kiellands Plass",
    "address": "Alexander Kiellands Plass",
    "lat": 59.92806670615684,
    "lon": 10.751202636819613,
    "capacity": 25
  },
  {
    "station_id": "746",
    "name": "Bygd\u00f8y all\u00e9",
    "address": "Bygd\u00f8y all\u00e9",
    "lat": 59.919001,
    "lon": 10.692321,
    "capacity": 12
  },
  {
    "station_id": "378",
    "name": "Colosseum Kino",
    "address": "Colosseum",
    "lat": 59.92984300295666,
    "lon": 10.711284727205708,
    "capacity": 12
  },
  {
    "station_id": "417",
    "name": "Uranienborgparken",
    "address": "Uranienborgparken",
    "lat": 59.922485,
    "lon": 10.720896,
    "capacity": 15
  },
  {
    "station_id": "427",
    "name": "Briskeby",
    "address": "Briskeby",
    "lat": 59.920218,
    "lon": 10.717978,
    "capacity": 15
  },
  {
    "station_id": "418",
    "name": "Norsk Folkemuseum",
    "address": "Folkemuseet",
    "lat": 59.907674,
    "lon": 10.686843,
    "capacity": 12
  },
  {
    "station_id": "413",
    "name": "Majorstuen",
    "address": "Kirkeveien 59",
    "lat": 59.929045,
    "lon": 10.716926,
    "capacity": 18
  },
  {
    "station_id": "486",
    "name": "Det Teologiske fakultet",
    "address": "Blindernveien 2",
    "lat": 59.935342,
    "lon": 10.726472,
    "capacity": 28
  },
  {
    "station_id": "471",
    "name": "Marienlyst",
    "address": "Suhms Gate 46A",
    "lat": 59.932432498521095,
    "lon": 10.721762294477472,
    "capacity": 12
  },
  {
    "station_id": "597",
    "name": "Fredensborg",
    "address": "Fredensborgveien 64",
    "lat": 59.920995,
    "lon": 10.750358,
    "capacity": 15
  },
  {
    "station_id": "422",
    "name": "St. Hanshaugen",
    "address": "Waldemar Thranes gate 3",
    "lat": 59.923703,
    "lon": 10.740542,
    "capacity": 12
  },
  {
    "station_id": "739",
    "name": "Hammersborg Torg",
    "address": "M\u00f8llergata 39",
    "lat": 59.91652053839767,
    "lon": 10.749202233135232,
    "capacity": 20
  },
  {
    "station_id": "382",
    "name": "Stensgata",
    "address": "Theresesgate_Stensgata",
    "lat": 59.92958561753996,
    "lon": 10.732839000000013,
    "capacity": 9
  },
  {
    "station_id": "396",
    "name": "Kirkeristen",
    "address": "Stortorvet 13",
    "lat": 59.91300035973293,
    "lon": 10.746760585982287,
    "capacity": 24
  },
  {
    "station_id": "735",
    "name": "Oslo Hospital",
    "address": "Oslo Gate 39",
    "lat": 59.90321254732584,
    "lon": 10.7673442932541,
    "capacity": 15
  },
  {
    "station_id": "437",
    "name": "Sentrum Scene",
    "address": "Sentrum Scene",
    "lat": 59.91546786564256,
    "lon": 10.751140873016311,
    "capacity": 24
  },
  {
    "station_id": "446",
    "name": "Bislett Stadion",
    "address": "Bislett Stadion",
    "lat": 59.925471317049954,
    "lon": 10.73121932213806,
    "capacity": 24
  },
  {
    "station_id": "424",
    "name": "Birkelunden",
    "address": "Seidluksgata 23",
    "lat": 59.9256113,
    "lon": 10.760926,
    "capacity": 10
  },
  {
    "station_id": "457",
    "name": "Trondheimsveien",
    "address": "Trondheimsveien 64",
    "lat": 59.9230577,
    "lon": 10.7717192,
    "capacity": 10
  },
  {
    "station_id": "377",
    "name": "T\u00f8yenparken",
    "address": "T\u00f8yenparken",
    "lat": 59.915667,
    "lon": 10.7775665,
    "capacity": 29
  },
  {
    "station_id": "738",
    "name": "Lodalen busstopp",
    "address": "Konows gate 45",
    "lat": 59.9034528,
    "lon": 10.777958,
    "capacity": 12
  },
  {
    "station_id": "460",
    "name": "Botanisk Hage s\u00f8r",
    "address": "Jens Bjelkes gate 39B",
    "lat": 59.915417698024385,
    "lon": 10.76933022142641,
    "capacity": 29
  },
  {
    "station_id": "734",
    "name": "Nylandsveien",
    "address": "Nylandsveien",
    "lat": 59.9156603,
    "lon": 10.7622812,
    "capacity": 30
  },
  {
    "station_id": "744",
    "name": "Hall\u00e9nparken",
    "address": "Johan Sverdrups Plass",
    "lat": 59.9315302,
    "lon": 10.762169,
    "capacity": 10
  },
  {
    "station_id": "485",
    "name": "Sommerfrydhagen",
    "address": "Sommerfrydhagen",
    "lat": 59.911453,
    "lon": 10.776072,
    "capacity": 21
  }
]
